{
    "ARC": {
        "Latitude": "47.759938",
        "Longitude": "-122.190312",
        "Name": "Activities & Recreation Center"
    },
    "CC1": {
        "Latitude": "47.758938",
        "Longitude": "-122.190687",
        "Name": ""
    },
    "CC2": {
        "Latitude": "47.758938",
        "Longitude": "-122.190687",
        "Name": ""
    },
    "DISC": {
        "Latitude": "47.759063",
        "Longitude": "-122.191937",
        "Name": "Discovery Hall"
    },
    "ELC": {
        "Latitude": "47.632563",
        "Longitude": "-122.155937",
        "Name": "Eastside Leadership Center"
    },
    "HH": {
        "Latitude": "47.758938",
        "Longitude": "-122.190687",
        "Name": ""
    },
    "LB1": {
        "Latitude": "47.759938",
        "Longitude": "-122.191312",
        "Name": "Library Building 1"
    },
    "LB2": {
        "Latitude": "47.758938",
        "Longitude": "-122.190687",
        "Name": "Library Building 2"
    },
    "LBA": {
        "Latitude": "47.759938",
        "Longitude": "-122.191312",
        "Name": "Library Building Annex"
    },
    "LBH": {
        "Latitude": "47.758938",
        "Longitude": "-122.190687",
        "Name": ""
    },
    "NCEC": {
        "Latitude": "47.760313",
        "Longitude": "-122.190438",
        "Name": "North Creek Events Center"
    },
    "SSG": {
        "Latitude": "47.758938",
        "Longitude": "-122.190687",
        "Name": ""
    },
    "UW1": {
        "Latitude": "47.761563",
        "Longitude": "-122.194438",
        "Name": "Founders Hall"
    },
    "UW2": {
        "Latitude": "47.758688",
        "Longitude": "-122.191312",
        "Name": "Commons Hall"
    },
    "UWBB": {
        "Latitude": "47.764063",
        "Longitude": "-122.193937",
        "Name": "Beardslee Building"
    },
    "UWBX": {
        "Latitude": "47.758938",
        "Longitude": "-122.190687",
        "Name": "Beardslee Crossing"
    }
}